City_ID,City,Country,Lat,Lng,Max Temp,Humidity,Cloudiness,Wind Speed,Current Description
0,Rikitea,PF,-23.1203,-134.9692,77.83,77,100,20.04,light rain
1,Atuona,PF,-9.8,-139.0333,78.31,73,21,17.69,few clouds
2,Vanimo,PG,-2.6741,141.3028,77.45,88,100,7.18,heavy intensity rain
3,Pevek,RU,69.7008,170.3133,-3.44,95,100,2.15,overcast clouds
4,Sumbawanga,TZ,-7.9667,31.6167,70.52,67,56,4.63,light rain
5,Rocha,UY,-34.4833,-54.3333,83.34,34,5,15.21,clear sky
6,Castro,BR,-24.7911,-50.0119,69.17,64,95,6.26,overcast clouds
7,Upernavik,GL,72.7868,-56.1549,6.06,95,100,4.32,light snow
8,Nioro,GM,13.35,-15.75,95.5,9,6,5.99,clear sky
9,Khatanga,RU,71.9667,102.5,-9.22,77,99,11.83,overcast clouds
10,Tasiilaq,GL,65.6145,-37.6368,32.16,77,100,7.38,overcast clouds
11,Mahebourg,MU,-20.4081,57.7,80.26,94,75,3.44,light rain
12,Mataura,NZ,-46.1927,168.8643,56.48,72,90,5.75,overcast clouds
13,Iqaluit,CA,63.7506,-68.5145,-16.31,68,75,8.99,broken clouds
14,Saskylakh,RU,71.9167,114.0833,-28.53,97,6,8.75,clear sky
15,Puerto Ayora,EC,-0.7393,-90.3518,75.16,76,43,7.49,scattered clouds
16,Namibe,AO,-15.1961,12.1522,75.24,62,81,12.28,broken clouds
17,Arraial Do Cabo,BR,-22.9661,-42.0278,73.36,94,100,5.75,moderate rain
18,Albany,US,42.6001,-73.9662,17.74,68,3,1.01,clear sky
19,Ixtapa,MX,20.7,-105.2,67.23,88,40,2.3,scattered clouds
20,Omidiyeh,IR,30.7597,49.705,64.27,59,0,0.0,clear sky
21,Springdale,US,36.1867,-94.1288,41.11,87,100,8.01,overcast clouds
22,Gat,IL,31.61,34.7642,66.78,100,0,2.59,clear sky
23,Hobart,AU,-42.8794,147.3294,55.26,82,100,5.75,overcast clouds
24,Busselton,AU,-33.65,115.3333,63.09,62,52,17.43,broken clouds
25,Kodiak,US,57.79,-152.4072,32.2,69,100,19.15,light snow
26,Port Alfred,ZA,-33.5906,26.891,76.53,80,34,23.78,scattered clouds
27,San Patricio,US,28.017,-97.5169,57.88,90,87,3.47,overcast clouds
28,Northam,GB,51.0333,-4.2167,46.42,84,100,26.82,moderate rain
29,Airai,TL,-8.9266,125.4092,61.56,91,100,1.63,overcast clouds
30,Mount Isa,AU,-20.7333,139.5,71.37,23,0,0.0,clear sky
31,Angoram,PG,-4.0625,144.0661,74.5,98,100,2.75,moderate rain
32,Bluff,NZ,-46.6,168.3333,56.8,78,100,8.14,overcast clouds
33,Half Moon Bay,US,37.4636,-122.4286,50.52,94,75,5.75,broken clouds
34,Cidreira,BR,-30.1811,-50.2056,74.17,60,73,16.82,broken clouds
35,Mudanya,TR,40.3753,28.8822,54.45,79,100,3.04,overcast clouds
36,Ushuaia,AR,-54.8,-68.3,55.02,66,75,34.52,light intensity drizzle
37,Pisco,PE,-13.7,-76.2167,72.01,83,100,8.05,mist
38,Klaksvik,FO,62.2266,-6.589,40.12,95,100,28.03,overcast clouds
39,Iwaki,JP,37.05,140.8833,36.05,63,4,6.04,clear sky
40,Kapaa,US,22.0752,-159.319,71.58,84,0,1.01,clear sky
41,Chuy,UY,-33.6971,-53.4616,78.53,44,34,14.99,scattered clouds
42,Vaini,TO,-21.2,-175.2,75.36,94,100,0.0,overcast clouds
43,Camana,PE,-16.6228,-72.7111,74.77,74,74,6.35,broken clouds
44,Aklavik,CA,68.2191,-135.0107,-11.2,77,100,18.41,light snow
45,Zhicheng,CN,30.2956,111.5047,43.63,72,86,1.41,overcast clouds
46,Hermanus,ZA,-34.4187,19.2345,84.79,55,0,17.94,clear sky
47,Mpanda,TZ,-6.3655,31.0409,77.83,69,70,1.25,broken clouds
48,Tiksi,RU,71.6872,128.8694,-19.79,99,100,5.82,overcast clouds
49,Faanui,PF,-16.4833,-151.75,80.83,77,21,8.03,few clouds
50,Norman Wells,CA,65.282,-126.8329,-7.56,71,100,8.05,light snow
51,Port-Gentil,GA,-0.7193,8.7815,85.96,74,40,12.66,scattered clouds
52,Jamestown,US,42.097,-79.2353,18.52,63,0,3.0,clear sky
53,Hilo,US,19.7297,-155.09,67.73,77,0,4.61,clear sky
54,Knysna,ZA,-34.0363,23.0471,79.18,67,0,16.89,clear sky
55,Nome,US,64.5011,-165.4064,5.07,47,0,14.97,clear sky
56,Novotroitskaya,RU,45.3267,41.5253,35.55,91,100,8.72,overcast clouds
57,Kavieng,PG,-2.5744,150.7967,82.27,71,99,10.27,overcast clouds
58,Egvekinot,RU,66.3167,-179.1667,0.27,83,100,9.13,overcast clouds
59,Kamenka,RU,51.3223,42.7678,6.67,99,72,4.43,broken clouds
60,Sikonge,TZ,-5.6333,32.7667,81.12,50,100,4.81,overcast clouds
61,Kushima,JP,31.4583,131.2333,42.12,79,99,4.52,overcast clouds
62,Chunskiy,RU,56.0815,99.6342,-13.88,100,9,3.65,clear sky
63,Avarua,CK,-21.2078,-159.775,75.25,100,37,3.44,scattered clouds
64,Nanortalik,GL,60.1432,-45.2371,16.23,78,64,17.6,broken clouds
65,Russell,US,32.3502,-85.1999,39.96,61,0,8.48,clear sky
66,Szentgotthard,HU,46.9526,16.2736,38.62,53,83,3.29,broken clouds
67,Opuwo,NA,-18.0607,13.84,95.67,9,49,16.4,scattered clouds
68,Yellowknife,CA,62.456,-114.3525,-20.58,93,75,10.36,light snow
69,Punta Arenas,CL,-53.15,-70.9167,53.71,50,0,41.43,clear sky
70,Chernyshevskiy,RU,63.0128,112.4714,-44.79,100,54,2.46,broken clouds
71,Sao Filipe,CV,14.8961,-24.4956,75.22,66,12,10.74,few clouds
72,Marsabit,KE,2.3284,37.9899,77.77,39,29,12.75,scattered clouds
73,Dikson,RU,73.5069,80.5464,5.23,79,100,15.5,overcast clouds
74,Cabo San Lucas,MX,22.8909,-109.9124,65.5,67,94,3.04,overcast clouds
75,Litovko,RU,49.2361,135.1742,-21.89,100,37,1.83,scattered clouds
76,Saint-Philippe,RE,-21.3585,55.7679,81.95,84,47,6.93,light rain
77,Thompson,CA,55.7435,-97.8558,-18.24,69,75,4.61,broken clouds
78,Sao Joao Da Barra,BR,-21.6403,-41.0511,75.29,95,100,14.43,light rain
79,Ribeira Grande,PT,38.5167,-28.7,63.0,59,20,8.05,few clouds
80,Georgetown,MY,5.4112,100.3354,83.89,83,20,5.01,few clouds
81,Flin Flon,CA,54.7682,-101.865,-13.16,70,100,6.91,light snow
82,Taoudenni,ML,22.6783,-3.9836,69.89,15,84,17.83,broken clouds
83,East London,ZA,-33.0153,27.9116,76.14,73,20,11.5,few clouds
84,Bredasdorp,ZA,-34.5322,20.0403,84.27,73,3,21.85,clear sky
85,Saint George,US,37.1041,-113.5841,46.54,78,0,8.05,clear sky
86,Rawson,AR,-43.3002,-65.1023,82.22,35,0,10.54,clear sky
87,Port Elizabeth,ZA,-33.918,25.5701,79.09,61,0,20.71,clear sky
88,Tromso,NO,69.6496,18.957,28.42,80,100,1.01,light snow
89,Chokurdakh,RU,70.6333,147.9167,-12.12,98,100,6.85,overcast clouds
90,Butaritari,KI,3.0707,172.7902,77.45,92,100,12.53,heavy intensity rain
91,Winchester,GB,51.0651,-1.3187,52.09,85,75,8.99,broken clouds
92,Hithadhoo,MV,-0.6,73.0833,82.36,73,26,5.77,scattered clouds
93,Marovoay,MG,-16.1,46.6333,84.34,81,100,8.72,light rain
94,Portsmouth,GB,50.799,-1.0913,52.57,97,100,11.99,overcast clouds
95,Palmer,US,42.1584,-72.3287,19.2,58,0,1.99,clear sky
96,Longyearbyen,SJ,78.2186,15.6401,6.64,72,75,10.36,light snow
97,Le Vauclin,MQ,14.5452,-60.8388,84.25,61,75,19.57,broken clouds
98,Carrefour,HT,18.5411,-72.3992,80.78,69,20,8.05,few clouds
99,Ishigaki,JP,24.3448,124.1572,68.36,74,98,20.2,overcast clouds
100,Nowy Targ,PL,49.4778,20.0323,31.95,58,100,1.92,overcast clouds
101,Imbituba,BR,-28.24,-48.6703,76.89,56,79,8.16,broken clouds
102,Zheleznodorozhnyy,RU,55.7503,38.0042,23.52,97,68,5.08,broken clouds
103,Mangan,IN,27.5167,88.5333,56.66,65,54,5.3,broken clouds
104,Lasa,IT,46.6166,10.7002,38.28,84,45,5.7,scattered clouds
105,Hovd,MN,48.0056,91.6419,8.02,96,93,2.37,overcast clouds
106,Kieta,PG,-6.2167,155.6333,78.46,86,47,5.77,scattered clouds
107,Caravelas,BR,-17.7125,-39.2481,83.88,76,99,10.42,overcast clouds
108,Eureka,US,40.8021,-124.1637,38.59,95,13,5.32,few clouds
109,Oranjemund,NA,-28.55,16.4333,70.36,78,20,12.24,few clouds
110,Piacabucu,BR,-10.4056,-36.4344,86.32,56,95,14.94,overcast clouds
111,Sobolevo,RU,54.4299,31.8996,19.2,91,100,9.06,overcast clouds
112,Comodoro Rivadavia,AR,-45.8667,-67.5,82.26,30,20,27.63,few clouds
113,Auki,SB,-8.7676,160.7034,77.18,89,99,4.47,heavy intensity rain
114,Zhangye,CN,38.9342,100.4517,26.1,38,3,1.81,clear sky
115,Lorengau,PG,-2.0226,147.2712,81.27,71,99,11.34,overcast clouds
116,New Norfolk,AU,-42.7826,147.0587,54.91,86,61,1.43,broken clouds
117,Tokonou,GN,9.65,-9.7833,92.21,13,33,5.08,scattered clouds
118,Padang,ID,-0.9492,100.3543,78.01,92,100,5.64,overcast clouds
119,Teguise,ES,29.0605,-13.564,64.62,60,0,12.66,clear sky
120,Husavik,IS,66.0449,-17.3389,35.51,80,70,12.59,broken clouds
121,Chulman,RU,56.8479,124.9104,-9.78,96,100,8.7,overcast clouds
122,Avera,US,33.194,-82.5271,36.91,45,0,11.01,clear sky
123,Lalin,ES,42.7167,-8.1167,51.76,83,98,8.5,overcast clouds
124,Batticaloa,LK,7.7102,81.6924,78.39,83,60,10.42,broken clouds
125,Naze,JP,28.3667,129.4833,61.23,73,96,13.04,overcast clouds
126,Bridgetown,BB,13.1,-59.6167,84.69,58,40,24.16,scattered clouds
127,Evensk,RU,61.95,159.2333,17.42,68,100,14.74,overcast clouds
128,Paranaiba,BR,-19.6772,-51.1908,82.49,61,88,5.06,overcast clouds
129,Portland,US,45.5234,-122.6762,42.78,91,100,1.99,overcast clouds
130,Coquimbo,CL,-29.9533,-71.3436,65.93,72,75,6.91,broken clouds
131,Nikolskoye,RU,59.7035,30.7861,11.8,95,100,5.3,light snow
132,Carnarvon,AU,-24.8667,113.6333,75.27,73,75,21.85,broken clouds
133,Kamina,CD,-8.7386,24.9906,75.09,85,47,3.76,light rain
134,Altay,CN,47.8667,88.1167,13.91,76,53,6.8,broken clouds
135,Fortuna,US,40.5982,-124.1573,40.19,96,20,1.01,few clouds
136,Mar Del Plata,AR,-38.0023,-57.5575,80.62,84,0,15.99,clear sky
137,Tlacote El Bajo,MX,20.65,-100.5,54.84,56,10,3.09,clear sky
138,Zhigansk,RU,66.7697,123.3711,-38.0,100,56,5.14,broken clouds
139,Praya,CV,14.9215,-23.5087,77.54,57,75,24.16,broken clouds
140,The Pas,CA,53.8251,-101.2541,-11.18,77,100,8.05,light snow
141,Barrow,US,71.2906,-156.7887,-18.38,76,0,5.75,clear sky
142,Kushiro,JP,42.975,144.3747,26.33,86,46,6.29,scattered clouds
143,Lebu,CL,-37.6167,-73.65,64.72,79,100,11.86,overcast clouds
144,Manavalakurichi,IN,8.1333,77.3,84.29,77,49,7.07,scattered clouds
145,Mount Gambier,AU,-37.8333,140.7667,57.11,82,100,9.22,overcast clouds
146,Marawi,PH,7.9986,124.2928,68.65,97,35,1.01,heavy intensity rain
147,Kaitangata,NZ,-46.2817,169.8464,55.8,82,100,5.32,overcast clouds
148,Tole,UA,44.7167,33.8167,44.51,67,92,4.14,overcast clouds
149,Strelka,RU,58.0728,93.0344,-3.78,97,72,7.31,broken clouds
150,Teguldet,RU,57.3064,88.1667,23.38,85,98,12.1,overcast clouds
151,Plouzane,FR,48.3833,-4.6167,53.08,82,75,21.85,broken clouds
152,Bethel,US,41.3712,-73.414,23.18,59,0,1.01,clear sky
153,Togul,RU,53.465,85.9128,11.37,98,88,3.27,overcast clouds
154,Miraflores,MX,19.2167,-98.8083,56.03,65,11,2.48,few clouds
155,Saldanha,ZA,-33.0117,17.9442,93.25,73,45,12.84,scattered clouds
156,Olinda,BR,-8.0089,-34.8553,85.73,62,40,10.36,scattered clouds
157,Vieques,PR,18.425,-65.8329,84.0,73,40,13.8,scattered clouds
158,Tuktoyaktuk,CA,69.4541,-133.0374,-16.6,76,100,23.02,light snow
159,Yenagoa,NG,4.9247,6.2642,86.77,59,94,10.25,light rain
160,Severo-Kurilsk,RU,50.6789,156.125,29.44,82,82,19.55,broken clouds
161,Tecoanapa,MX,16.5167,-98.75,77.52,73,0,3.87,clear sky
162,Srednekolymsk,RU,67.45,153.6833,-18.09,96,99,6.26,overcast clouds
163,Turukhansk,RU,65.8167,87.9833,13.33,92,100,24.61,light snow
164,Ambilobe,MG,-13.2,49.05,78.03,88,100,4.68,moderate rain
165,Erdenet,MN,49.0333,104.0833,-2.24,97,11,3.33,few clouds
166,Maumere,ID,-8.6199,122.2111,80.28,82,68,5.12,broken clouds
167,Kununurra,AU,-15.7667,128.7333,82.38,74,59,9.22,broken clouds
168,Constitucion,CL,-35.3333,-72.4167,67.93,71,38,15.14,scattered clouds
169,Lompoc,US,34.6391,-120.4579,52.57,91,100,3.44,fog
170,Tawang,IN,27.5833,91.8667,35.56,82,71,2.26,broken clouds
171,Livingston,GB,55.9029,-3.5226,43.48,83,40,9.22,scattered clouds
172,Barcelona,ES,41.3888,2.159,59.02,62,0,1.99,clear sky
173,Cedar City,US,37.6775,-113.0619,34.77,75,100,4.61,overcast clouds
174,Nova Olimpia,BR,-14.7972,-57.2881,87.33,63,86,5.41,overcast clouds
175,Vila Velha,BR,-20.3297,-40.2925,78.75,91,100,6.91,overcast clouds
176,Luzon,PH,6.519,126.0941,80.38,80,29,4.92,scattered clouds
177,Devonport,AU,-41.1667,146.35,57.09,92,100,7.18,overcast clouds
178,Santa Rosa,PH,14.3122,121.1114,79.11,82,10,8.16,clear sky
179,Christchurch,NZ,-43.5333,172.6333,61.95,90,40,1.01,scattered clouds
180,Cape Town,ZA,-33.9258,18.4232,92.26,36,0,12.66,clear sky
181,Soubre,CI,5.7856,-6.6083,87.85,50,87,2.86,overcast clouds
182,Guanica,PR,17.9716,-66.908,85.05,58,5,4.0,clear sky
183,Cherskiy,RU,68.75,161.3,-13.47,100,14,5.01,few clouds
184,Hamilton,US,39.1834,-84.5333,20.34,75,0,1.99,clear sky
185,Alofi,NU,-19.0595,-169.9187,73.29,100,96,1.14,overcast clouds
186,Puerto Del Rosario,ES,28.5004,-13.8627,67.75,52,0,10.36,clear sky
187,Muncar,ID,-8.4333,114.3333,77.13,85,100,3.71,overcast clouds
188,Qaanaaq,GL,77.484,-69.3632,-5.75,89,97,5.95,overcast clouds
189,Torrington,US,41.8007,-73.1212,20.12,64,0,5.01,clear sky
190,Bambanglipuro,ID,-7.95,110.2833,79.99,80,100,2.1,overcast clouds
191,Bondoukou,CI,8.0333,-2.8,95.68,13,69,5.44,broken clouds
192,Lavrentiya,RU,65.5833,-171.0,-6.83,79,16,9.42,few clouds
193,Leshukonskoye,RU,64.8989,45.7622,4.42,94,78,6.24,broken clouds
194,Matai,TZ,-8.3,31.5167,70.59,78,94,1.1,light rain
195,Guerrero Negro,MX,27.9769,-114.0611,56.98,82,68,9.37,broken clouds
196,Tutoia,BR,-2.7619,-42.2744,89.58,63,94,13.51,overcast clouds
197,Cadereyta,MX,25.5833,-99.9833,68.38,62,91,1.03,overcast clouds
198,Hurghada,EG,27.2574,33.8129,73.44,49,0,5.75,clear sky
199,Manokwari,ID,-0.8667,134.0833,78.48,82,98,4.83,overcast clouds
200,Molos,GR,38.8167,22.65,57.92,87,100,1.86,overcast clouds
201,Kaeo,NZ,-35.1,173.7833,65.32,95,96,3.49,overcast clouds
202,Ancud,CL,-41.8697,-73.8203,68.23,85,82,5.86,broken clouds
203,Kambove,CD,-10.8764,26.5969,72.82,84,94,4.16,moderate rain
204,Yulara,AU,-25.2406,130.9889,82.24,16,0,6.91,clear sky
205,Chifeng,CN,42.2683,118.9636,18.99,59,17,1.66,few clouds
206,Bundi,IN,25.4417,75.6417,64.11,75,36,3.02,scattered clouds
207,Tiarei,PF,-17.5333,-149.3333,77.02,78,32,6.96,light rain
208,Basco,PH,20.4487,121.9702,73.72,76,89,19.39,overcast clouds
209,Santiago,CL,-33.4569,-70.6483,86.29,45,0,4.61,clear sky
210,Tarija,BO,-21.5355,-64.7296,66.11,77,100,0.0,overcast clouds
211,Datong,CN,40.0936,113.2914,25.88,56,94,1.03,overcast clouds
212,Provideniya,RU,64.3833,-173.3,7.66,68,26,9.84,scattered clouds
213,Ahuimanu,US,21.4447,-157.8378,66.78,88,0,3.44,clear sky
214,Moose Factory,CA,51.2585,-80.6094,-2.2,78,100,9.22,overcast clouds
215,Broome,US,42.2506,-75.833,17.1,79,0,1.01,clear sky
216,Te Anau,NZ,-45.4167,167.7167,57.56,84,100,6.46,light rain
217,Kupang,ID,-10.1667,123.5833,77.58,94,40,4.61,scattered clouds
218,Superior,US,46.7208,-92.1041,20.01,73,100,10.36,overcast clouds
219,Cheyenne,US,41.14,-104.8203,37.54,70,100,13.8,overcast clouds
220,Karratha,AU,-20.7377,116.8463,85.53,66,61,9.4,broken clouds
221,Tautira,PF,-17.7333,-149.15,77.02,79,18,6.71,light rain
222,Bronnoysund,NO,65.4625,12.1997,26.6,63,0,12.66,clear sky
223,Leningradskiy,RU,69.3833,178.4167,-10.43,98,95,9.82,overcast clouds
224,Tessalit,ML,20.1986,1.0114,70.02,12,30,12.97,scattered clouds
225,Le Port,RE,-20.9373,55.2919,82.36,80,23,1.81,light rain
226,Ullapool,GB,57.8987,-5.1604,41.95,84,98,10.11,overcast clouds
227,Atambua,ID,-9.1061,124.8925,75.07,84,93,0.81,overcast clouds
228,Isla Aguada,MX,18.7833,-91.4667,75.24,85,100,15.12,overcast clouds
229,Powassan,CA,46.0334,-79.3496,-0.81,72,100,7.0,overcast clouds
230,Sambava,MG,-14.2667,50.1667,79.48,86,98,7.11,light rain
231,Umm Kaddadah,SD,13.6017,26.6876,87.93,13,87,13.4,overcast clouds
232,Maniitsoq,GL,65.4167,-52.9,14.59,83,100,13.58,light snow
233,Monrovia,LR,6.3005,-10.7969,89.37,64,36,10.38,scattered clouds
234,Kurgan,RU,55.45,65.3333,22.8,97,77,7.02,light snow
235,Asyut,EG,27.181,31.1837,69.98,17,35,7.07,scattered clouds
236,Price,US,39.5994,-110.8107,34.86,75,100,6.91,overcast clouds
237,Fengzhen,CN,40.4394,113.1536,22.82,60,94,1.32,overcast clouds
238,College,US,64.8569,-147.8028,-36.45,60,0,6.91,haze
239,Libreville,GA,0.3925,9.4537,86.02,74,20,10.36,few clouds
240,Oistins,BB,13.0667,-59.5333,84.29,58,40,24.16,scattered clouds
241,Calvinia,ZA,-31.4707,19.776,94.17,20,15,13.44,few clouds
242,Berbera,SO,10.4396,45.0143,77.99,65,22,12.19,few clouds
243,Bathsheba,BB,13.2167,-59.5167,84.81,58,40,24.16,scattered clouds
244,Vao,NC,-22.6667,167.4833,77.83,83,93,21.59,overcast clouds
245,Mahonda,TZ,-6.45,39.4667,89.71,76,51,14.74,broken clouds
246,Pontianak,ID,-0.0333,109.3333,78.78,88,20,2.3,few clouds
247,Lakes Entrance,AU,-37.8811,147.981,64.17,91,64,2.37,broken clouds
248,Jackson,US,42.4165,-122.8345,39.04,89,100,3.44,overcast clouds
249,Wewak,PG,-3.5534,143.6268,78.33,89,100,13.89,light rain
250,Abnub,EG,27.2696,31.1511,70.02,18,34,7.16,scattered clouds
251,Soyo,AO,-6.1349,12.3689,82.54,76,78,10.25,broken clouds
252,Yuanping,CN,38.7153,112.7575,29.07,59,83,1.21,broken clouds
253,Okara,PK,30.8081,73.4458,59.76,49,100,5.26,overcast clouds
254,Almeirim,BR,-1.5233,-52.5817,79.7,79,100,6.49,light rain
255,Kamaishi,JP,39.2667,141.8833,34.5,81,14,9.55,few clouds
256,Hasaki,JP,35.7333,140.8333,28.8,59,15,15.88,few clouds
257,Byron Bay,AU,-28.65,153.6167,75.15,85,97,7.99,overcast clouds
258,Mayna,RU,54.1135,47.6231,1.45,97,9,6.22,clear sky
259,Udachnyy,RU,66.4167,112.4,-38.31,100,51,5.48,broken clouds
260,Kawalu,ID,-7.3817,108.2082,74.79,93,100,0.38,light rain
261,Paamiut,GL,61.994,-49.6678,13.89,90,100,6.6,light snow
262,Sola,VU,-13.8833,167.55,82.11,73,100,16.46,light rain
263,Rosarito,MX,32.3333,-117.0333,54.14,75,100,7.38,overcast clouds
264,Ponta Delgada,PT,37.7333,-25.6667,64.51,63,75,5.75,broken clouds
265,Sept-Iles,CA,50.2001,-66.3821,7.05,56,20,7.0,few clouds
266,Bambous Virieux,MU,-20.3428,57.7575,80.22,94,75,3.44,moderate rain
267,Kathu,TH,7.9178,98.3332,76.82,79,21,11.9,few clouds
268,Nouadhibou,MR,20.931,-17.0347,71.58,60,52,6.91,broken clouds
269,Totness,SR,5.8833,-56.3167,81.77,61,51,11.1,broken clouds
270,Rabo De Peixe,PT,37.8,-25.5833,63.28,99,75,5.75,broken clouds
271,Salalah,OM,17.0151,54.0924,75.29,53,0,6.91,clear sky
272,Sur,OM,22.5667,59.5289,69.73,46,0,10.0,clear sky
273,Grand Baie,MU,-20.0182,57.5802,80.46,80,100,3.0,overcast clouds
274,Ichinohe,JP,40.2069,141.3017,29.5,83,42,9.84,snow
275,Ossora,RU,59.2353,163.0719,22.53,95,100,17.9,snow
276,Kharan,PK,28.5833,65.4167,50.47,54,0,2.37,clear sky
277,Kyabe,TD,9.4515,18.9449,99.01,14,23,4.14,few clouds
278,Tamale,GH,9.4008,-0.8393,97.09,12,26,6.78,scattered clouds
279,Deniliquin,AU,-35.5333,144.9667,65.21,67,0,8.79,clear sky
280,Garcia Hernandez,PH,9.6144,124.2946,77.59,86,5,7.02,clear sky
281,Peleduy,RU,59.6289,112.7406,-23.78,100,84,2.39,broken clouds
282,Gariaband,IN,20.635,82.0614,72.95,58,0,3.74,clear sky
283,Lamu,KE,-2.2717,40.902,84.42,77,83,14.97,broken clouds
284,Lukiv,UA,51.0521,25.4006,30.18,64,99,7.23,overcast clouds
285,Muyezerskiy,RU,63.9333,31.65,-6.86,100,38,3.62,scattered clouds
286,Mwene-Ditu,CD,-7.0,23.45,80.46,73,100,0.6,overcast clouds
287,Bengkulu,ID,-3.8004,102.2655,78.51,87,100,2.73,overcast clouds
288,Okoneshnikovo,RU,54.8377,75.0834,30.69,96,100,21.74,light snow
289,Tarancon,ES,40.0085,-3.0073,44.06,54,94,10.22,overcast clouds
290,Bereda,ES,43.2686,-7.5406,53.01,98,100,9.64,overcast clouds
291,Wahlstedt,DE,53.95,10.2167,39.97,88,100,11.12,overcast clouds
292,Tezu,IN,27.9167,96.1667,61.88,51,1,4.25,clear sky
293,Port Hedland,AU,-20.3167,118.5667,84.25,54,38,14.97,scattered clouds
294,Port Shepstone,ZA,-30.7414,30.455,76.01,84,89,12.59,light rain
295,Havelock,US,34.8791,-76.9013,35.92,59,0,8.01,clear sky
296,Ostrovnoy,RU,68.0531,39.5131,12.58,80,99,24.76,overcast clouds
297,Isangel,VU,-19.55,169.2667,79.75,88,45,14.14,scattered clouds
298,Jalu,LY,29.0331,21.5482,59.27,39,1,15.84,clear sky
299,Beloha,MG,-25.1667,45.05,79.92,69,59,20.94,broken clouds
300,Grajau,BR,-5.8194,-46.1386,83.28,76,99,3.09,overcast clouds
301,Jaunpur,IN,25.7333,82.6833,62.62,93,36,6.11,scattered clouds
302,Dubbo,AU,-32.25,148.6167,71.73,88,75,5.75,light rain
303,Buta,CD,2.7858,24.73,87.33,38,77,3.06,broken clouds
304,Cururupu,BR,-1.8283,-44.8683,87.17,59,94,6.62,overcast clouds
305,Inhambane,MZ,-23.865,35.3833,84.18,58,40,11.5,scattered clouds
306,Vardo,NO,70.3705,31.1107,23.2,78,100,22.37,light snow
307,Port Lincoln,AU,-34.7333,135.8667,61.25,86,3,12.5,clear sky
308,Abu Dhabi,AE,24.4667,54.3667,69.91,51,0,6.91,clear sky
309,Harper,LR,4.375,-7.7169,84.24,66,93,6.04,light rain
310,La Ronge,CA,55.1001,-105.2842,-9.15,77,100,6.91,overcast clouds
311,Flinders,AU,-34.5833,150.8552,72.18,85,100,3.0,overcast clouds
312,Jiexiu,CN,37.0244,111.9125,32.45,61,87,3.62,overcast clouds
313,Severo-Yeniseyskiy,RU,60.3725,93.0408,-2.24,92,99,6.78,overcast clouds
314,Jinchang,CN,38.4953,102.1739,26.51,47,67,1.88,broken clouds
315,Stykkisholmur,IS,65.0757,-22.7297,33.73,78,100,11.99,overcast clouds
316,Koslan,RU,63.4564,48.8989,2.61,96,100,7.4,overcast clouds
317,Capelinha,BR,-17.6914,-42.5158,70.5,88,100,5.61,overcast clouds
318,Adre,TD,13.4667,22.2,91.89,15,63,5.79,broken clouds
319,Sassandra,CI,4.95,-6.0833,83.34,67,97,7.54,overcast clouds
320,Sabang,ID,5.8933,95.3214,82.08,77,19,17.87,few clouds
321,Morogoro,TZ,-6.8167,37.6667,83.44,58,100,9.93,overcast clouds
322,Chapais,CA,49.7834,-74.8492,-24.02,93,74,4.79,broken clouds
323,Xining,CN,36.6167,101.7667,28.2,57,0,1.39,clear sky
324,Gushikawa,JP,26.3544,127.8686,65.43,88,20,5.75,few clouds
325,Saint-Augustin,CA,51.226,-58.6502,14.2,78,100,28.32,overcast clouds
326,Ketchikan,US,55.3422,-131.6461,28.38,93,100,5.75,light snow
327,Westport,US,41.1415,-73.3579,25.03,55,0,4.0,clear sky
328,Victoria,HK,22.2855,114.1577,64.38,82,22,1.99,few clouds
329,Asau,RO,46.4333,26.4,36.75,90,79,3.29,broken clouds
330,Kayerkan,RU,69.3497,87.7602,6.53,77,100,22.5,overcast clouds
331,Quelimane,MZ,-17.8786,36.8883,82.35,83,75,8.05,broken clouds
332,Impfondo,CG,1.6381,18.0667,97.14,27,68,3.31,broken clouds
333,Cabedelo,BR,-6.9811,-34.8339,84.87,59,94,13.67,overcast clouds
334,Tommot,RU,58.9564,126.2925,-5.89,96,100,6.82,overcast clouds
335,Lucapa,AO,-8.4192,20.7447,79.65,65,100,2.13,overcast clouds
336,Ambanja,MG,-13.6833,48.45,82.33,88,100,3.38,light rain
337,Coihaique,CL,-45.5752,-72.0662,67.95,52,75,10.36,broken clouds
338,Geraldton,AU,-28.7667,114.6,72.01,64,100,23.02,overcast clouds
339,Alice Springs,AU,-23.7,133.8833,76.55,23,0,6.91,clear sky
340,Emerald,AU,-23.5333,148.1667,78.94,73,67,8.05,light rain
341,Suifenhe,CN,44.4,131.1667,-7.06,95,52,4.16,broken clouds
342,Kailaras,IN,26.3167,77.6167,62.74,88,3,2.42,clear sky
343,Torbay,CA,47.6666,-52.7314,35.28,82,75,10.0,light intensity drizzle
344,Katsuura,JP,35.1333,140.3,52.2,63,46,17.0,scattered clouds
345,Basoko,CD,1.2391,23.616,91.06,40,44,2.66,scattered clouds
346,Luderitz,NA,-26.6481,15.1594,71.01,72,4,10.69,clear sky
347,Agadez,NE,19.75,10.25,68.4,17,39,12.64,scattered clouds
348,San Francisco Menendez,SV,13.8431,-90.0158,75.27,56,36,3.13,scattered clouds
349,Anadyr,RU,64.75,177.4833,7.3,78,0,2.24,clear sky
350,Lata,PT,40.1629,-8.3327,58.71,60,100,5.93,overcast clouds
351,Tripoli,LY,32.8752,13.1875,55.83,58,100,33.31,overcast clouds
352,Riberalta,BO,-10.9833,-66.1,80.8,83,75,9.22,broken clouds
353,Abu Samrah,SY,35.3029,37.1841,54.91,56,0,8.59,clear sky
354,Launceston,AU,-41.45,147.1667,58.6,81,100,1.99,overcast clouds
355,Boca Do Acre,BR,-8.7522,-67.3978,83.66,68,89,5.44,overcast clouds
356,Grafenau,DE,48.8577,13.3974,31.91,85,100,1.99,light snow
357,Narsaq,GL,60.9167,-46.05,12.42,80,4,5.37,clear sky
358,Ilebo,CD,-4.3167,20.5833,87.55,57,100,1.88,overcast clouds
359,Ahipara,NZ,-35.1667,173.1667,66.45,83,100,4.7,overcast clouds
360,Iquitos,PE,-3.7481,-73.2472,84.24,79,75,5.75,broken clouds
361,Kungurtug,RU,50.5994,97.5228,-5.3,99,83,1.45,broken clouds
362,Thinadhoo,MV,0.5333,72.9333,82.33,74,27,7.56,scattered clouds
363,Nyurba,RU,63.2842,118.3319,-31.32,99,73,3.58,broken clouds
364,Paducah,US,37.0834,-88.6001,29.32,71,100,6.91,overcast clouds
365,Rio Gallegos,AR,-51.6226,-69.2181,60.85,21,20,32.21,few clouds
366,Tokur,RU,53.1333,132.9,-26.46,99,59,2.37,broken clouds
367,Canto Do Buriti,BR,-8.11,-42.9444,86.2,60,77,3.56,broken clouds
368,Huarmey,PE,-10.0681,-78.1522,73.08,79,44,5.75,scattered clouds
369,Kruisfontein,ZA,-34.0033,24.7314,76.68,72,88,20.67,overcast clouds
370,Banjar,ID,-8.19,114.9675,80.46,85,100,1.41,overcast clouds
371,Sheopur,IN,25.6667,76.7,63.55,82,0,0.31,clear sky
372,Rio Grande,BR,-32.035,-52.0986,80.71,55,100,17.85,overcast clouds
373,Sorong,ID,-0.8833,131.25,79.54,83,100,2.42,overcast clouds
374,Goundam,ML,16.4145,-3.6708,81.66,8,51,15.01,broken clouds
375,Ambon,ID,-3.6954,128.1814,81.01,79,97,5.1,overcast clouds
376,Namuac,PH,18.6109,121.1657,73.29,88,78,10.04,broken clouds
377,Dumas,US,35.8656,-101.9732,45.66,42,0,14.97,clear sky
378,Sitka,US,57.0531,-135.33,24.69,50,100,10.36,overcast clouds
379,Mezen,RU,65.8522,44.24,11.41,87,80,9.46,broken clouds
380,Raul Soares,BR,-20.1022,-42.4519,71.82,97,100,0.72,light rain
381,Ilulissat,GL,69.2167,-51.1,15.82,73,75,17.27,broken clouds
382,Parana,AR,-31.732,-60.5238,87.57,41,1,7.67,clear sky
383,Luena,AO,-11.7833,19.9167,72.3,85,100,2.66,moderate rain
384,Morehead,US,37.2711,-87.1764,24.12,81,100,1.99,overcast clouds
385,Sri Aman,MY,1.2376,111.4621,78.85,94,100,0.0,overcast clouds
386,Urumqi,CN,43.801,87.6005,14.95,86,12,2.24,mist
387,Vondrozo,MG,-22.8167,47.2833,71.04,92,51,6.24,light rain
388,Colesberg,ZA,-30.72,25.0972,80.33,36,68,16.51,broken clouds
389,Clovis,US,36.8252,-119.7029,48.87,95,100,5.75,mist
390,Port Hardy,CA,50.6996,-127.4199,35.6,86,100,16.11,overcast clouds
391,Vrangel,RU,42.7297,133.0839,20.98,61,98,12.75,overcast clouds
392,Mehamn,NO,71.0357,27.8492,23.4,86,100,20.33,light snow
393,Fort Nelson,CA,58.8053,-122.7002,-27.81,68,0,0.0,clear sky
394,Roald,NO,62.5833,6.1333,36.09,60,0,16.11,clear sky
395,Talnakh,RU,69.4865,88.3972,7.21,93,100,19.66,light snow
396,Kyritz,DE,52.9421,12.397,39.94,91,65,8.99,broken clouds
397,Sidrolandia,BR,-20.9319,-54.9614,79.59,46,11,6.33,few clouds
398,Santo Antonio Do Ica,BR,-3.1022,-67.9397,77.34,89,100,1.59,overcast clouds
399,Caraquet,CA,47.7941,-64.9386,18.34,72,7,15.86,clear sky
400,Arang,IN,21.2,81.9667,73.72,47,3,4.79,clear sky
401,Allen,US,41.0706,-85.0144,20.17,80,20,4.0,few clouds
402,Wajima,JP,37.4,136.9,48.07,75,96,29.1,overcast clouds
403,Vila Franca Do Campo,PT,37.7167,-25.4333,64.2,59,60,3.33,broken clouds
404,Charters Towers,AU,-20.1,146.2667,78.98,79,16,12.77,few clouds
405,Lerwick,GB,60.1545,-1.1494,41.0,97,100,33.06,overcast clouds
406,Bubaque,GW,11.2833,-15.8333,80.47,55,37,6.24,scattered clouds
407,Menomonie,US,44.8755,-91.9193,18.28,73,100,6.91,overcast clouds
408,Salisbury,GB,51.0693,-1.7957,52.09,85,75,17.27,moderate rain
409,Mecca,SA,21.4267,39.8261,80.64,52,30,9.46,scattered clouds
410,Manacapuru,BR,-3.2997,-60.6206,81.18,97,100,5.08,overcast clouds
411,The Valley,AI,18.217,-63.0578,84.06,69,40,17.27,scattered clouds
412,Puerto Boyaca,CO,5.9758,-74.5885,82.53,67,95,0.94,overcast clouds
413,Shache,CN,38.4167,77.2406,28.65,34,90,3.53,overcast clouds
414,Raga,SS,8.4596,25.678,96.58,16,58,5.3,broken clouds
415,Truth Or Consequences,US,33.1284,-107.2528,44.91,49,0,3.44,clear sky
416,Kavaratti,IN,10.5669,72.642,80.17,69,2,8.19,clear sky
417,Balkhash,KZ,46.844,74.9804,24.94,92,99,3.22,overcast clouds
418,Magadan,RU,59.5667,150.8,9.54,78,100,7.96,overcast clouds
419,Kholodnyy,RU,62.7167,147.95,-24.61,100,88,1.3,overcast clouds
420,Sao Paulo De Olivenca,BR,-3.3783,-68.8725,74.52,96,100,0.65,overcast clouds
421,Kahului,US,20.8947,-156.47,70.84,86,0,8.05,clear sky
422,Yantal,RU,56.8471,105.2542,-23.4,100,78,3.06,broken clouds
423,Bud,US,39.447,-86.1758,20.3,78,17,13.51,few clouds
424,Zambezi,ZM,-13.5432,23.1047,75.2,75,100,2.98,overcast clouds
425,Deputatskiy,RU,69.3,139.9,-14.13,99,100,3.65,overcast clouds
426,Ereymentau,KZ,51.6199,73.1033,27.21,83,100,25.32,overcast clouds
427,Port Blair,IN,11.6667,92.75,79.61,77,10,10.31,clear sky
428,Mersing,MY,2.4312,103.8405,80.51,83,78,10.36,broken clouds
429,Morwell,AU,-38.2333,146.4,60.91,99,21,1.52,few clouds
430,Ruwi,OM,23.5996,58.5507,71.29,45,0,3.06,clear sky
431,Poya,NC,-21.35,165.15,76.44,84,61,6.06,broken clouds
432,Elkhart,US,41.5823,-85.8344,17.85,75,0,14.97,clear sky
433,Pangoa,PE,-12.1167,-73.0,82.56,61,25,2.73,scattered clouds
434,Sofiyivka,UA,48.0493,33.8746,28.56,47,99,9.46,overcast clouds
435,Seddon,AU,-37.8068,144.8916,63.27,82,100,9.22,light intensity drizzle
436,Vostok,RU,46.4856,135.8833,-18.0,100,100,3.27,overcast clouds
437,Pachino,IT,36.7186,15.0907,53.64,72,100,13.91,moderate rain
438,Darnah,LY,32.767,22.6367,59.86,56,43,17.27,scattered clouds
439,Marsa Matruh,EG,31.3525,27.2453,66.4,42,75,14.97,broken clouds
440,Broken Hill,AU,-31.95,141.4333,67.71,52,0,3.44,clear sky
441,Beringovskiy,RU,63.05,179.3167,-1.88,98,97,11.25,overcast clouds
442,Nelson Bay,AU,-32.7167,152.15,73.96,93,93,1.01,overcast clouds
443,Honiara,SB,-9.4333,159.95,77.23,86,99,4.41,overcast clouds
444,Shirokiy,RU,49.758,129.523,-25.55,100,85,0.72,overcast clouds
445,Pietarsaari,FI,63.65,22.6833,13.89,97,99,5.93,overcast clouds
446,Kokstad,ZA,-30.5472,29.4241,61.86,97,91,4.05,heavy intensity rain
447,Lagoa,PT,39.05,-27.9833,58.23,66,38,8.93,scattered clouds
448,Voh,NC,-20.9667,164.7,77.79,78,98,4.03,overcast clouds
449,Keuruu,FI,62.2667,24.7,14.18,99,90,3.71,overcast clouds
450,Vila,PT,42.0304,-8.1588,44.33,79,100,5.82,overcast clouds
451,Carlyle,US,38.6103,-89.3726,25.14,72,67,10.0,broken clouds
452,Mitchell,US,43.7094,-98.0298,23.11,74,0,8.99,clear sky
453,Oksfjord,NO,70.2396,22.3479,27.52,92,100,8.25,light snow
454,Sao Jose Da Coroa Grande,BR,-8.8978,-35.1478,85.53,57,93,13.04,overcast clouds
455,Tura,IN,25.5198,90.2201,61.57,54,0,2.89,clear sky
456,Gilgit,PK,35.9221,74.3087,40.93,96,100,2.59,overcast clouds
457,Katangli,RU,51.7102,143.2326,4.26,96,100,7.67,light snow
458,Cayenne,GF,4.9333,-52.3333,82.09,75,0,4.0,clear sky
459,Jieshi,CN,22.8134,115.8257,63.95,79,0,14.41,clear sky
460,Orlik,RU,52.5178,99.825,-16.01,98,78,2.46,broken clouds
461,Sayville,US,40.7359,-73.0821,25.23,49,0,13.0,clear sky
462,Jambi,ID,-1.6,103.6167,75.31,96,40,2.95,scattered clouds
463,Kamloops,CA,50.6665,-120.3192,6.57,88,40,1.01,scattered clouds
464,Mbanza-Ngungu,CD,-5.25,14.8667,77.0,83,100,2.39,moderate rain
465,Nemuro,JP,43.3236,145.575,33.73,78,60,13.0,broken clouds
466,Kologriv,RU,58.8275,44.3178,-3.77,100,91,5.26,overcast clouds
467,Dwarka,IN,22.2394,68.9678,68.76,54,0,6.42,clear sky
468,Barabai,ID,-2.5833,115.3833,74.73,84,98,1.61,overcast clouds
469,Lodwar,KE,3.1191,35.5973,94.42,24,50,16.62,scattered clouds
470,Mackay,AU,-21.15,149.2,82.38,83,4,5.75,clear sky
471,Vanavara,RU,60.34,102.2797,-25.58,99,75,3.06,broken clouds
472,Meulaboh,ID,4.1363,96.1285,79.38,81,100,4.16,moderate rain
473,Sinnamary,GF,5.3833,-52.95,78.48,76,100,10.09,overcast clouds
474,Cibitoke,BI,-2.8833,29.25,71.92,75,100,4.5,light rain
475,Kurilsk,RU,45.2333,147.8833,26.51,69,91,7.65,overcast clouds
476,Alot,IN,23.7667,75.55,62.69,77,47,7.52,scattered clouds
477,Ballina,AU,-28.8667,153.5667,75.16,88,100,9.22,overcast clouds
478,Coahuayana,MX,18.7333,-103.6833,74.68,70,68,2.08,broken clouds
479,Bensonville,LR,6.4461,-10.6125,89.15,56,53,8.57,broken clouds
480,Teya,RU,60.3778,92.6267,1.47,93,100,5.64,overcast clouds
481,Sabzevar,IR,36.2126,57.6819,43.88,49,0,0.0,clear sky
482,Vangaindrano,MG,-23.35,47.6,77.72,83,20,9.69,light rain
483,Saint-Medard-En-Jalles,FR,44.8969,-0.7214,53.82,83,75,19.57,broken clouds
484,Anloga,GH,5.7947,0.8973,89.82,66,49,13.44,scattered clouds
485,Tuatapere,NZ,-46.1333,167.6833,56.82,84,100,6.15,overcast clouds
486,Codrington,AU,-38.2667,141.9667,58.35,70,100,7.76,overcast clouds
487,Margate,GB,51.3813,1.3862,50.88,90,100,4.0,moderate rain
488,Esperance,AU,-33.8667,121.9,73.24,68,82,7.63,broken clouds
489,Ko Samui,TH,9.5357,99.9357,81.27,73,18,7.07,few clouds
490,Ngunguru,NZ,-35.6167,174.5,65.16,87,23,4.9,few clouds
491,Namatanai,PG,-3.6667,152.4333,79.39,80,100,6.62,overcast clouds
492,Sharan,RU,54.8167,54.0,10.18,89,100,16.6,overcast clouds
493,Bhadrapur,NP,26.544,88.0944,67.21,56,4,3.76,clear sky
494,Vallenar,CL,-28.5708,-70.7581,78.04,39,2,7.85,clear sky
495,San Cristobal,VE,7.7669,-72.225,68.18,40,61,3.06,broken clouds
496,Obo,CF,5.3998,26.4869,95.2,21,85,8.08,overcast clouds
497,Tomatlan,MX,19.9333,-105.25,66.49,69,83,1.86,broken clouds
498,Atherton,GB,53.5237,-2.4935,47.28,89,100,10.0,overcast clouds
499,Wasilla,US,61.5814,-149.4394,8.58,50,0,20.71,clear sky
500,Dyersburg,US,36.0345,-89.3856,35.15,86,100,8.05,overcast clouds
501,Sibolga,ID,1.7427,98.7792,77.0,92,100,4.12,overcast clouds
502,Tarrafal,CV,15.2833,-23.7667,77.79,70,7,18.75,clear sky
503,Samarai,PG,-10.6167,150.6667,78.55,84,100,7.11,overcast clouds
504,Saint-Louis,SN,16.3333,-15.0,89.1,9,70,12.28,broken clouds
505,Faya,SA,18.3851,42.4509,62.71,72,35,7.49,scattered clouds
506,Iberia,US,29.9502,-91.7507,59.05,82,100,16.11,overcast clouds
507,Tanabe,JP,33.7333,135.3667,44.15,84,66,4.05,broken clouds
508,Pangody,RU,65.85,74.4859,-9.24,98,100,0.49,overcast clouds
509,Topchikha,RU,52.8192,83.1185,30.78,88,96,11.56,overcast clouds
510,Oni,GE,42.5794,43.4425,37.54,90,29,5.99,scattered clouds
511,Caceres,ES,39.522,-6.3748,50.81,56,100,6.71,overcast clouds
512,Kigali,RW,-1.95,30.0588,76.48,57,40,15.01,scattered clouds
513,Antalaha,MG,-14.9003,50.2788,78.28,88,99,6.67,moderate rain
514,San Isidro,PE,-12.1167,-77.05,74.79,64,0,11.5,clear sky
515,Bollnas,SE,61.3482,16.3946,28.38,96,100,6.98,light snow
516,San Juan,AR,-31.5375,-68.5364,92.57,20,5,10.54,clear sky
517,Mandalgovi,MN,45.7625,106.2708,10.31,69,15,12.48,few clouds
518,Anchorage,US,61.2181,-149.9003,9.48,78,0,0.0,clear sky
519,Gornopravdinsk,RU,60.05,69.9,14.61,97,100,4.09,overcast clouds
520,Khabary,RU,53.6259,79.5345,30.76,92,100,17.63,overcast clouds
521,Havre-Saint-Pierre,CA,50.2334,-63.5986,12.2,51,0,19.57,clear sky
522,Pacific Grove,US,36.6177,-121.9166,50.43,92,100,1.99,overcast clouds
523,Boone,US,39.0334,-92.3335,30.45,84,92,1.01,overcast clouds
524,Kyra,RU,49.5776,111.9753,5.36,70,8,7.43,clear sky
525,Gardiner,US,44.2301,-69.7753,18.93,63,0,3.0,clear sky
526,Comendador,DO,18.8775,-71.7028,77.72,57,5,1.41,clear sky
527,Hailar,CN,49.2,119.7,-7.04,100,71,4.88,broken clouds
528,Okha,RU,53.5739,142.9478,3.11,93,100,19.71,overcast clouds
529,Hami,CN,42.8,93.45,26.51,38,100,1.25,overcast clouds
530,Williston,US,48.147,-103.618,2.14,71,33,11.01,scattered clouds
531,Kudahuvadhoo,MV,2.6708,72.8944,82.15,70,4,11.83,clear sky
532,Yar-Sale,RU,66.8333,70.8333,-4.36,98,100,5.84,overcast clouds
533,Xinpu,CN,34.5997,119.1594,40.73,70,100,2.28,overcast clouds
534,Sembe,CG,1.6481,14.5806,99.61,20,69,3.33,broken clouds
535,Ponta Do Sol,PT,32.6667,-17.1,65.03,72,34,8.86,scattered clouds
536,Bundaberg,AU,-24.85,152.35,77.29,94,100,5.75,overcast clouds
537,Naustdal,NO,61.509,5.7168,37.26,86,75,6.91,broken clouds
538,Vestmannaeyjar,IS,63.4427,-20.2734,40.19,81,100,34.52,overcast clouds
539,Orsk,RU,51.2049,58.5668,22.1,79,40,22.37,scattered clouds
540,Srandakan,ID,-7.9386,110.2506,80.15,80,100,1.99,overcast clouds
541,Verkhnyaya Inta,RU,65.9811,60.3094,1.67,95,99,13.87,overcast clouds
542,Along,IN,28.1667,94.7667,55.4,70,5,1.99,clear sky
543,Macomer,IT,40.262,8.7699,49.03,83,85,15.95,overcast clouds
544,Birao,CF,10.2849,22.7882,98.83,12,45,4.0,scattered clouds
545,Ganganagar,IN,29.9167,73.8833,55.53,67,3,6.24,clear sky
546,Angouleme,FR,45.65,0.15,50.32,83,75,19.57,light rain
547,Kloulklubed,PW,7.0419,134.2556,77.5,76,99,6.4,overcast clouds
548,Lensk,RU,60.7253,114.9278,-27.74,99,18,3.91,few clouds
549,Albion,US,42.2431,-84.753,17.38,71,0,13.8,clear sky
550,Senanga,ZM,-16.1167,23.2667,77.4,75,100,4.54,light rain
551,Voskresensk,RU,55.3125,38.6636,23.58,97,67,5.79,broken clouds
552,Pangnirtung,CA,66.1451,-65.7125,-9.4,70,75,0.0,light snow
553,Hambantota,LK,6.1241,81.1185,78.3,80,100,15.08,overcast clouds
554,Whitehorse,CA,60.7161,-135.0538,-30.91,66,0,0.0,fog
555,Pare,ID,-7.7679,112.198,75.58,89,100,0.45,light rain
556,Loandjili,CG,-4.7561,11.8578,84.31,79,20,12.66,few clouds
557,Qaqortoq,GL,60.7167,-46.0333,12.7,87,5,5.1,clear sky
558,Cherkasskoye,RU,52.4333,47.2167,2.39,98,7,4.59,clear sky
559,Mitsamiouli,KM,-11.3847,43.2844,88.09,66,75,9.22,light rain
560,San Felipe,VE,10.3399,-68.7425,80.42,61,61,8.37,broken clouds
561,Touros,BR,-5.1989,-35.4608,86.9,63,89,14.5,overcast clouds
562,Tulum,MX,20.2167,-87.4667,76.93,59,76,8.93,broken clouds
563,Yelyzavethradka,UA,48.8038,32.4046,28.76,46,100,10.04,overcast clouds
564,Nanakuli,US,21.3906,-158.1547,67.03,85,0,5.75,clear sky
565,Zhezkazgan,KZ,47.8043,67.7144,26.58,93,100,8.95,fog
566,Praia Da Vitoria,PT,38.7333,-27.0667,63.75,72,20,6.55,few clouds
567,Walvis Bay,NA,-22.9575,14.5053,69.1,71,100,16.67,overcast clouds
568,Sarangani,PH,5.4033,125.4636,81.41,76,92,4.09,overcast clouds
569,Aswan,EG,24.0934,32.907,72.7,30,100,10.36,overcast clouds
570,Dingle,PH,10.9995,122.6711,73.8,91,7,6.33,clear sky
571,Talcahuano,CL,-36.7167,-73.1167,58.68,88,100,17.27,overcast clouds
572,San Estanislao,CO,10.3983,-75.1511,82.49,60,100,7.74,overcast clouds
573,Barber,CW,12.2833,-69.0667,84.18,65,40,14.97,scattered clouds
574,Kells,IE,53.7264,-6.8792,44.17,76,43,16.96,scattered clouds
575,Sisimiut,GL,66.9395,-53.6735,16.2,73,100,22.86,overcast clouds
576,Strezhevoy,RU,60.7333,77.5889,31.98,85,100,17.49,overcast clouds
577,Clyde River,CA,70.4692,-68.5914,-18.17,69,100,3.44,overcast clouds
578,Tres Arroyos,AR,-38.3739,-60.2798,91.08,16,0,12.55,clear sky
579,Grand Gaube,MU,-20.0064,57.6608,80.38,80,100,3.0,overcast clouds
580,Vokhtoga,RU,58.8147,41.0461,-1.17,98,42,4.88,scattered clouds
581,Nishihara,JP,26.1842,127.7558,65.48,72,20,9.22,few clouds
582,Grindavik,IS,63.8424,-22.4338,41.47,65,75,27.63,broken clouds
583,Bilma,NE,18.6853,12.9164,74.26,13,0,15.35,clear sky
584,Fairbanks,US,64.8378,-147.7164,-36.44,60,0,0.0,haze
585,Mokhsogollokh,RU,61.4681,128.9203,-33.79,99,93,3.22,overcast clouds
586,Sangar,RU,63.9242,127.4739,-46.89,99,54,2.1,broken clouds
587,Richards Bay,ZA,-28.783,32.0377,79.36,70,63,11.07,broken clouds
588,Imeni Stepana Razina,RU,54.8932,44.2963,5.86,99,62,6.29,broken clouds
589,Vagur,FO,61.4732,-6.8119,43.41,76,69,10.69,broken clouds
590,Calbuco,CL,-41.768,-73.1273,69.01,88,3,8.1,clear sky
591,Ayolas,PY,-27.4,-56.9,95.2,36,6,2.98,clear sky
592,Mikuni,JP,36.2171,136.1519,44.51,69,32,13.51,scattered clouds
593,Akonolinga,CM,3.7667,12.25,95.45,19,21,2.21,few clouds
594,Koumac,NC,-20.5667,164.2833,78.35,80,96,4.25,overcast clouds
595,Maceio,BR,-9.6658,-35.7353,89.04,58,40,16.11,scattered clouds
596,Ciudad Bolivar,VE,8.1222,-63.5497,85.62,45,78,12.84,broken clouds
597,Tahoua,NE,14.8888,5.2692,85.98,10,0,10.36,clear sky
598,Chumikan,RU,54.7183,135.315,-9.09,85,99,13.82,overcast clouds
599,Bruchsal,DE,49.1281,8.5836,41.29,74,100,8.52,overcast clouds
600,Pangkalanbuun,ID,-2.6833,111.6167,76.78,90,74,2.33,broken clouds
601,Bandarbeyla,SO,9.4942,50.8122,76.26,66,23,18.54,few clouds
602,Marystown,CA,47.1666,-55.1483,37.85,100,100,5.99,overcast clouds
603,Acarau,BR,-2.8856,-40.12,87.87,56,89,17.13,overcast clouds
604,Dunedin,NZ,-45.8742,170.5036,59.38,88,100,4.12,overcast clouds
605,Porto Torres,IT,40.835,8.3972,55.58,73,77,26.46,broken clouds
606,Komsomolskiy,UZ,40.4272,71.7189,39.92,75,100,2.3,mist
607,Jiangkou,CN,25.4872,119.1986,53.49,78,23,11.54,few clouds
608,Morondava,MG,-20.2833,44.2833,85.5,67,5,13.4,clear sky
609,Hit,IQ,33.6416,42.8251,58.55,54,0,8.75,clear sky
610,Puerto Baquerizo Moreno,EC,-0.9,-89.6,74.39,88,40,10.36,scattered clouds
611,Jiayuguan,CN,39.8167,98.3,24.28,41,82,1.54,broken clouds
612,Carballo,ES,43.213,-8.691,55.0,83,75,11.59,broken clouds
613,Porto Novo,BJ,6.4965,2.6036,89.42,54,85,10.18,overcast clouds
614,Lokachi,UA,50.737,24.6494,29.75,61,96,6.62,overcast clouds
615,Conceicao Do Mato Dentro,BR,-19.0372,-43.425,69.19,96,100,2.84,overcast clouds
616,Corpus Christi,US,27.8006,-97.3964,58.01,99,100,1.01,fog
617,Guadalupe Victoria,MX,32.2869,-115.105,50.52,63,100,4.97,overcast clouds
618,Porangatu,BR,-13.4408,-49.1486,73.15,96,100,7.99,moderate rain
619,Marathon,US,44.9,-89.7668,15.33,70,100,1.01,overcast clouds
620,Lingao,CN,19.9103,109.6859,66.97,86,93,11.36,overcast clouds
621,Nisia Floresta,BR,-6.0911,-35.2086,88.18,51,71,13.85,broken clouds
622,Barrhead,GB,55.7992,-4.3929,44.65,85,75,1.99,broken clouds
623,Yandyki,RU,45.7691,47.1258,33.46,49,6,7.27,clear sky
624,Baillif,GP,16.0202,-61.7463,81.9,65,3,11.92,clear sky
625,Hoogeveen,NL,52.6833,6.5833,38.95,91,100,19.26,light rain
626,Bah,IN,26.87,78.5975,61.32,94,67,9.26,broken clouds
627,Palana,RU,59.1167,159.9667,19.38,76,100,11.54,overcast clouds
628,Chicama,PE,-7.8447,-79.1469,66.74,69,80,6.17,broken clouds
629,Axim,GH,4.8699,-2.2405,84.09,67,98,9.42,overcast clouds
630,Henties Bay,NA,-22.116,14.2845,68.86,77,96,11.83,overcast clouds
631,Chadan,RU,51.2833,91.5833,-4.74,99,94,2.59,overcast clouds
632,Vulcan,RO,45.3833,23.2667,31.48,94,100,4.45,light snow
633,Zhanaozen,KZ,43.3,52.8,36.32,79,92,16.89,overcast clouds
634,Gualeguaychu,AR,-33.0094,-58.5172,87.48,24,13,11.77,few clouds
635,Talgar,KZ,43.3027,77.2395,28.56,100,100,4.47,mist
636,Gusau,NG,12.1628,6.6614,90.54,14,23,5.32,few clouds
637,Oussouye,SN,12.485,-16.5469,93.38,16,11,3.62,few clouds
638,Middletown,US,39.5151,-84.3983,20.7,76,0,8.05,clear sky
639,Fukue,JP,32.6881,128.8419,50.32,58,100,9.78,overcast clouds
640,Lipin Bor,RU,60.2622,37.9763,-3.46,100,83,4.09,broken clouds
641,Yamada,JP,39.4667,141.95,31.55,83,11,7.94,few clouds
642,Kerema,PG,-7.9631,145.7785,76.59,83,100,4.63,light rain
643,Alto Araguaia,BR,-17.3147,-53.2153,83.39,62,14,1.86,few clouds
644,Thessalon,CA,46.2501,-83.5666,21.49,83,100,19.84,overcast clouds
645,Jacksonville Beach,US,30.2947,-81.3931,69.06,76,0,1.99,clear sky
646,Yarada,IN,17.65,83.2667,75.52,83,20,3.44,mist
647,Lahaina,US,20.8783,-156.6825,70.81,83,0,8.05,clear sky
648,Gallup,US,35.5281,-108.7426,39.96,64,0,1.01,clear sky
649,Dromolaxia,CY,34.8761,33.586,65.86,78,20,5.75,few clouds
650,Itarema,BR,-2.9248,-39.9167,88.05,55,76,15.86,broken clouds
651,Hualmay,PE,-11.0964,-77.6139,73.29,77,20,6.62,few clouds
652,Burnie,AU,-41.0667,145.9167,59.52,93,100,13.2,light rain
653,Profitis Ilias,GR,35.2056,25.0999,62.33,67,40,8.01,scattered clouds
654,Karaton,ID,-6.3424,106.1045,78.96,85,91,4.03,overcast clouds
655,Amahai,ID,-3.3333,128.9167,78.84,83,100,2.39,moderate rain
656,Kukushtan,RU,57.6464,56.4952,13.62,90,100,10.54,overcast clouds
657,Qui Nhon,VN,13.7667,109.2333,71.89,91,15,9.24,few clouds
658,Havre,FR,49.5833,0.3333,48.34,93,75,18.41,light rain
659,Carbonia,IT,39.1672,8.5222,48.85,84,95,24.52,light rain
660,Puerto Escondido,MX,15.85,-97.0667,79.54,63,2,3.33,clear sky
661,Nampula,MZ,-15.1165,39.2666,76.95,83,75,10.36,thunderstorm
662,Calama,CL,-22.4667,-68.9333,68.49,24,20,5.75,few clouds
663,Port-Cartier,CA,50.0334,-66.8654,6.75,71,0,9.28,clear sky
664,Chadiza,ZM,-14.0678,32.4392,69.12,89,100,5.44,overcast clouds
665,Yima,CN,34.7381,111.8839,38.1,70,70,5.39,broken clouds
666,Saint-Joseph,RE,-21.3667,55.6167,80.96,83,28,8.01,light rain
667,Mabaruma,GY,8.2,-59.7833,82.81,59,13,7.36,few clouds
668,Dengzhou,CN,37.8086,120.7508,34.63,61,100,11.86,overcast clouds
669,Prince Rupert,CA,54.3161,-130.3201,31.69,86,100,13.8,light snow
670,Baherden,TM,38.4362,57.4316,48.24,39,17,1.54,few clouds
671,Acapulco,MX,16.8634,-99.8901,75.02,83,75,4.61,broken clouds
672,Malappuram,IN,11.0667,76.0667,80.76,74,20,2.3,haze
673,Sangin,AF,32.0728,64.8359,46.36,61,6,3.65,clear sky
674,Mazagao,BR,-0.115,-51.2894,82.45,95,100,2.68,overcast clouds
